[{"location":"50.82675125,4.357460682275594","address":"Rue Defacqz  100, Saint-Gilles","title":"Appartement","locvent":"Vendre","description":"TrÃ©s bon appartement en bon Ã©tat","mail":"info@beagence.com","tel":"0485759515","prix":"100000","pay":"1","id":"0","exp":"2022-03-13","pay_id":"promo"},
{"location":"50.825541,4.3537924395727625","address":"Rue Moris  11, Saint-Gilles","title":"Appartement","locvent":"Louer","description":"Bon appartement en bon Ã©tat","mail":"info@beagence.com","tel":"04857511525","prix":"100000","pay":"1","id":"0","exp":"2022-03-13","pay_id":"promo"},
{"location":"50.8342902,4.3050553","address":"Rue de la Procession , Anderlecht","title":"Appartement","locvent":"Vendre","description":"Appartement cosy d\\'une chambre et entrÃ©e avec armoires encastrÃ©es; terrasse plein sud - 5Ã©.\r\n","mail":"info@beagence.com","tel":"0479269589","prix":"135000","pay":"1","id":"0","exp":"2022-03-15","pay_id":"promo"},
{"location":"50.8340656,4.30543717110304","address":"Rue de la Procession  22, Anderlecht","title":"Appartement","locvent":"Vendre","description":"Appartement cosy d\\'une chambre et entrÃ©e avec armoires encastrÃ©es; terrasse plein sud - 5Ã©.\r\nPremier voisin metro Saint-Guidon.","mail":"info@beagence.com","tel":"0479269589","prix":"135000","pay":"1","id":"0","exp":"2022-03-15","pay_id":"promo"},
{"location":"50.8902758,4.473751301493977","address":"Borreveldlaan  32, Zaventem","title":"Maison","locvent":"Vendre","description":"Maison Bel-Etage avec un jardin et garage! \r\n\r\nIdÃ©ale pour une petite famille . \r\n\r\nUne maison composÃ©e comme suit: \r\n\r\n_Au rez-de-chaussÃ©e: un hall dâ€™entrÃ©e, une toilette pour les visiteurs, une buanderie,\r\nune piÃ¨ce de stockage (poss. cuisine jardin) ,\r\nun garage et un jardin de +\/- 70 ãŽ¡. \r\n\r\n_Au 1er Ã©tage: living avec salle Ã  manger et une cuisine. \r\n\r\n_Au 2eme Ã©tage: deux chambres Ã  coucher, un bureau (3eme chambre actuellement)\r\net une salle de bain avec toilette. ","mail":"info@beagence.com","tel":"0477210489","prix":"349.000","pay":"1","id":"0","exp":"2022-03-15","pay_id":"promo"},
{"location":"50.8664776,4.3859766","address":"Boulevard Lambermont  314, Schaerbeek","title":"Appartement","locvent":"Vendre","description":"Appartement Haut Standing\r\n\r\nSituÃ© en face du Parc Josaphat , splendide appartement de haut standing, de 340mÂ², au 3Ã¨me Ã©tage dâ€™un petit immeuble de 6 appartements au total et de 5 Ã©tages (1 appartement par Ã©tage). FaÃ§ade exceptionnelle de plus de 20m. \r\n\r\nLâ€™appartement a conservÃ© tout son charme, avec, entre autres, des boiseries dÃ©coratives et de hauts plafonds. En excellent Ã©tat, il dispose de 2 hall en enfilade et dâ€™un trÃ¨s large couloir avec un bar pour des rÃ©ceptions. 4 larges chambres, avec 1sdb et 3 sdd, ainsi que 3 WC.\r\n\r\nUn grand living et une large cuisine, lumineuse, full-Ã©quipÃ©e. Plusieurs garderobes-armoires encastrÃ©es, et parquet dâ€™origine dans toutes les piÃ¨ces\r\n\r\nPorte blindÃ©e et alarme. Double vitrage insonorisant partout. Lâ€™immeuble a Ã©tÃ© rÃ©novÃ© et modernisÃ©. Localisation stratÃ©gique (proche de lâ€™OTAN, CE, airport; transport","mail":"info@beagence.com","tel":"0477210489","prix":"1000.000","pay":"1","id":"0","exp":"2022-03-15","pay_id":"promo"},
{"location":"50.8644314,4.385926464855212","address":"Boulevard Lambermont  358, Schaerbeek","title":"Maison","locvent":"Vendre","description":"Vendu en 2015.","mail":"info@beagence.com","tel":"0479269589","prix":"1630000","pay":"1","id":"0","exp":"2022-03-15","pay_id":"promo"},
{"location":"50.861625700000005,4.391185463115008","address":"Boulevard Lambermont  458, Schaerbeek","title":"Maison","locvent":"Vendre","description":"Vendu en 2015.","mail":"info@beagence.com","tel":"0479269589","prix":"1630.000","pay":"1","id":"0","exp":"2022-03-15","pay_id":"promo"},
{"location":"50.8593324,4.3752674","address":"Rue Josaphat  144, Schaerbeek","title":"Maison","locvent":"Vendre","description":"Vendu en 2021.","mail":"info@beagence.com","tel":"0479269589","prix":"530.000","pay":"1","id":"0","exp":"2022-03-15","pay_id":"promo"},
{"location":"50.8361447,4.3861737","address":", Etterbeek","title":"Maison","locvent":"Vendre","description":"BientÃ´t en vente.","mail":"info@beagence.com","tel":"0479269589","prix":"750.000","pay":"1","id":"0","exp":"2022-03-15","pay_id":"promo"},
{"location":"50.8221263,4.3895883","address":"Boulevard GÃ©neral Jacques  263F, Ixelles","title":"Maison","locvent":"Vendre","description":"BientÃ´t en vente.","mail":"info@beagence.com","tel":"0479269589","prix":"750.000","pay":"1","id":"0","exp":"2022-03-15","pay_id":"promo"},
{"location":"50.8649231,4.2946734","address":", Sint-Agatha-Berchem","title":"Appartement","locvent":"Vendre","description":"BientÃ´t en vente.","mail":"info@beagence.com","tel":"0479269589","prix":"270.000","pay":"1","id":"0","exp":"2022-03-15","pay_id":"promo"},
{"location":"50.828486850000004,4.361226872129253","address":"Rue Defacqz  14, Bruxelles","title":"Appartement","locvent":"Vendre","description":"Appartement vendu en 2002","mail":"info@beagence.com","tel":"0485215678","prix":"100.000","pay":"1","id":"0","exp":"2022-03-15","pay_id":"promo"},
{"location":"52.7905619,7.2400267","address":"haren, ","title":"Maison","locvent":"Vendre","description":"Maison 100m2; 2 chambres + combles amÃ©nagÃ©es en tant que chambre, bureau, jardin, terrasse, stock, caves Ã  vin, grand garage.","mail":"info@beagence.com","tel":"0477210489","prix":"379.000","pay":"1","id":"0","exp":"2022-04-26","pay_id":"promo"},
{"location":"50.8909441,4.4157553","address":"Haren, Brussels","title":"Maison","locvent":"Vendre","description":"Maison 100m2; 2 chambres + combles amÃ©nagÃ©es en tant que chambre, bureau, jardin, terrasse, stock cÃ´tÃ© jardin, caves Ã  vin, grand garage.","mail":"info@beagence.com","tel":"0477210489","prix":"379000","pay":"1","id":"0","exp":"2022-04-26","pay_id":"promo"},
{"location":"50.8465573,4.351697","address":"Brussels","title":"Appartement","locvent":"Louer","description":"Appartement","mail":"info@beagence.com","tel":"0477210489","prix":"950","pay":"1","id":"0","exp":"2022-04-26","pay_id":"promo"}
]
